{
"type": "FeatureCollection",
"crs": { "type": "name", "properties": { "name": "urn:ogc:def:crs:OGC:1.3:CRS84" } },
"features": [
{ "type": "Feature", "properties": { "name": "Beauty Bar", "address": "2299 Mission St", "phone": "(415) 285-0323", "website": "https://www.yelp.com/biz/beauty-bar-san-francisco-2", "overdose_help": "fentanylStrips", "value": "yes" }, "geometry": { "type": "Point", "coordinates": [ -122.4190303, 37.760366 ] } },
{ "type": "Feature", "properties": { "name": "Bender's Bar and Grill", "address": "806 S Van Ness Ave", "phone": "(415) 824-1800", "website": "https://www.bendersbar.com/", "overdose_help": "fentanylStrips", "value": "yes" }, "geometry": { "type": "Point", "coordinates": [ -122.4173283, 37.7601795 ] } },
{ "type": "Feature", "properties": { "name": "Casanova Lounge", "address": "527 Valencia St", "phone": "(415) 863-9328", "website": "https://www.casanovasf.com/", "overdose_help": "fentanylStrips", "value": "yes" }, "geometry": { "type": "Point", "coordinates": [ -122.42167, 37.7643931 ] } },
{ "type": "Feature", "properties": { "name": "Casements", "address": "2351 Mission St", "phone": "(415) 658-7320", "website": "https://www.casementsbar.com/", "overdose_help": "fentanylStrips", "value": "yes" }, "geometry": { "type": "Point", "coordinates": [ -122.4190102, 37.7594271 ] } },
{ "type": "Feature", "properties": { "name": "Doc's Clock", "address": "2417 Mission St", "phone": "(415) 824-3627", "website": "https://places.singleplatform.com/docs-clocks/", "overdose_help": "fentanylStrips", "value": "yes" }, "geometry": { "type": "Point", "coordinates": [ -122.4188764, 37.7583482 ] } },
{ "type": "Feature", "properties": { "name": "Knockout", "address": "3223 Mission St", "phone": "(415) 550-6994", "website": "https://theknockoutsf.com/", "overdose_help": "fentanylStrips", "value": "yes" }, "geometry": { "type": "Point", "coordinates": [ -122.4199482, 37.7451582 ] } },
{ "type": "Feature", "properties": { "name": "Make Out Room", "address": "3225 22nd St", "phone": "(415) 647-2888", "website": "https://www.makeoutroom.com/", "overdose_help": "fentanylStrips", "value": "yes" }, "geometry": { "type": "Point", "coordinates": [ -122.4193399, 37.75526 ] } },
{ "type": "Feature", "properties": { "name": "Mother Bar", "address": "3079 16th St", "phone": "(415) 815-7387", "website": "https://www.mothersf.com/", "overdose_help": "fentanylStrips", "value": "yes" }, "geometry": { "type": "Point", "coordinates": [ -122.4213151, 37.7646979 ] } },
{ "type": "Feature", "properties": { "name": "Mothership Bar", "address": "3152 Mission St", "phone": "(415) 637-5479", "website": "https://mothershipbar.com/", "overdose_help": "fentanylStrips", "value": "yes" }, "geometry": { "type": "Point", "coordinates": [ -122.419351, 37.7469249 ] } },
{ "type": "Feature", "properties": { "name": "Pop's Bar", "address": "2800 24th St", "phone": "(415) 872-5160", "website": "https://www.popssf.com/", "overdose_help": "fentanylStrips", "value": "yes" }, "geometry": { "type": "Point", "coordinates": [ -122.4083202, 37.7529581 ] } },
{ "type": "Feature", "properties": { "name": "Rock Bar", "address": "80 29th St", "phone": "(415) 550-6664", "website": "https://rockbarsf.com/", "overdose_help": "fentanylStrips", "value": "yes" }, "geometry": { "type": "Point", "coordinates": [ -122.4220837, 37.7441341 ] } },
{ "type": "Feature", "properties": { "name": "Royal Cuckoo Market", "address": "3368 19th St", "phone": "(415) 550-6903", "website": "https://royalcuckoomarket.com/", "overdose_help": "fentanylStrips", "value": "yes" }, "geometry": { "type": "Point", "coordinates": [ -122.4186223, 37.7604429 ] } },
{ "type": "Feature", "properties": { "name": "SF Eagle", "address": "398 12th St", "phone": "(415) 655-0411", "website": "https://sf-eagle.com/", "overdose_help": "fentanylStrips", "value": "yes" }, "geometry": { "type": "Point", "coordinates": [ -122.4134062, 37.7699936 ] } },
{ "type": "Feature", "properties": { "name": "The Chapel", "address": "777 Valencia St", "phone": "(415) 551-5157", "website": "https://www.thechapelsf.com/", "overdose_help": "fentanylStrips", "value": "yes" }, "geometry": { "type": "Point", "coordinates": [ -122.4212979, 37.7604864 ] } },
{ "type": "Feature", "properties": { "name": "The Royal Cuckoo", "address": "3202 Mission St", "phone": "(415) 550-8667", "website": "https://theroyalcuckoo.com/", "overdose_help": "fentanylStrips", "value": "yes" }, "geometry": { "type": "Point", "coordinates": [ -122.4202248, 37.7453808 ] } },
{ "type": "Feature", "properties": { "name": "The Sycamore", "address": "2140 Mission St", "phone": "(415) 252-7704", "website": "https://thesycamoresf.com/", "overdose_help": "fentanylStrips", "value": "yes" }, "geometry": { "type": "Point", "coordinates": [ -122.419727, 37.7627643 ] } },
{ "type": "Feature", "properties": { "name": "Thee Parkside", "address": "1600 17th St", "phone": "(415) 252-1330", "website": "https://www.theeparkside.com/", "overdose_help": "fentanylStrips", "value": "yes" }, "geometry": { "type": "Point", "coordinates": [ -122.399911, 37.765222 ] } },
{ "type": "Feature", "properties": { "name": "Thrillhouse Records", "address": "3422 Mission St", "phone": "(415) 826-0223", "website": "https://thrillhouserecords.com/", "overdose_help": "fentanylStrips", "value": "yes" }, "geometry": { "type": "Point", "coordinates": [ -122.4225348, 37.7419415 ] } },
{ "type": "Feature", "properties": { "name": "True Laurel", "address": "753 Alabama St", "phone": "(415) 341-0020", "website": "https://www.truelaurelsf.com/", "overdose_help": "fentanylStrips", "value": "yes" }, "geometry": { "type": "Point", "coordinates": [ -122.4114663, 37.7595236 ] } }
]
}
