{
"type": "FeatureCollection",
"crs": { "type": "name", "properties": { "name": "urn:ogc:def:crs:OGC:1.3:CRS84" } },
"features": [
{ "type": "Feature", "properties": { "name": "ABV", "address": "3174 16th St", "phone": "(415) 294-1871", "website": "https://abvsf.com/", "overdose_help": "narcan", "value": "yes" }, "geometry": { "type": "Point", "coordinates": [ -122.4235572, 37.7649603 ] } },
{ "type": "Feature", "properties": { "name": "Asiento", "address": "2730 21st St", "phone": "(415) 829-3375", "website": "https://www.asientosf.com/", "overdose_help": "narcan", "value": "yes" }, "geometry": { "type": "Point", "coordinates": [ -122.4094629, 37.7577512 ] } },
{ "type": "Feature", "properties": { "name": "Bar Part Time", "address": "496 14th St.", "phone": "(669) 333-9463", "website": "https://barparttime.com/", "overdose_help": "narcan", "value": "yes" }, "geometry": { "type": "Point", "coordinates": [ -122.4241805, 37.7681234 ] } },
{ "type": "Feature", "properties": { "name": "Bender's Bar and Grill", "address": "806 S Van Ness Ave", "phone": "(415) 824-1800", "website": "https://www.bendersbar.com/", "overdose_help": "narcan", "value": "yes" }, "geometry": { "type": "Point", "coordinates": [ -122.4173283, 37.7601795 ] } },
{ "type": "Feature", "properties": { "name": "Casanova Lounge", "address": "527 Valencia St", "phone": "(415) 863-9328", "website": "https://www.casanovasf.com/", "overdose_help": "narcan", "value": "yes" }, "geometry": { "type": "Point", "coordinates": [ -122.42167, 37.7643931 ] } },
{ "type": "Feature", "properties": { "name": "Clooney's", "address": "1401 Valencia St", "phone": "(415) 826-4988", "website": "https://www.yelp.com/biz/clooneys-pub-san-francisco", "overdose_help": "narcan", "value": "yes" }, "geometry": { "type": "Point", "coordinates": [ -122.4202389, 37.7504268 ] } },
{ "type": "Feature", "properties": { "name": "Doc's Clock", "address": "2417 Mission St", "phone": "(415) 824-3627", "website": "https://places.singleplatform.com/docs-clocks/", "overdose_help": "narcan", "value": "yes" }, "geometry": { "type": "Point", "coordinates": [ -122.4188764, 37.7583482 ] } },
{ "type": "Feature", "properties": { "name": "Dovre Club", "address": "1498 Valencia St", "phone": "(415) 780-0370", "website": "https://www.yelp.com/biz/dovre-club-san-francisco", "overdose_help": "narcan", "value": "yes" }, "geometry": { "type": "Point", "coordinates": [ -122.4205628, 37.7490116 ] } },
{ "type": "Feature", "properties": { "name": "El Rio", "address": "3158 Mission Street", "phone": "(415) 282-3325", "website": "https://www.elriosf.com/", "overdose_help": "narcan", "value": "yes" }, "geometry": { "type": "Point", "coordinates": [ -122.419409, 37.746794 ] } },
{ "type": "Feature", "properties": { "name": "Kilowatt", "address": "3160 16th St", "phone": "(415) 861-2595", "website": "https://kilowattbar.com/", "overdose_help": "narcan", "value": "yes" }, "geometry": { "type": "Point", "coordinates": [ -122.4232735, 37.7650002 ] } },
{ "type": "Feature", "properties": { "name": "Knockout", "address": "3223 Mission St", "phone": "(415) 550-6994", "website": "https://theknockoutsf.com/", "overdose_help": "narcan", "value": "yes" }, "geometry": { "type": "Point", "coordinates": [ -122.4199482, 37.7451582 ] } },
{ "type": "Feature", "properties": { "name": "Make Out Room", "address": "3225 22nd St", "phone": "(415) 647-2888", "website": "https://www.makeoutroom.com/", "overdose_help": "narcan", "value": "yes" }, "geometry": { "type": "Point", "coordinates": [ -122.4193399, 37.75526 ] } },
{ "type": "Feature", "properties": { "name": "Mission Bar", "address": "2697 Mission St", "phone": "(415) 647-2300", "website": "https://www.yelp.com/biz/mission-bar-san-francisco", "overdose_help": "narcan", "value": "yes" }, "geometry": { "type": "Point", "coordinates": [ -122.4184691, 37.7540314 ] } },
{ "type": "Feature", "properties": { "name": "Mission Bowling Club", "address": "3176 17th St", "phone": "(415) 863-2695", "website": "https://missionbowlingclub.com/", "overdose_help": "narcan", "value": "yes" }, "geometry": { "type": "Point", "coordinates": [ -122.416716, 37.763927 ] } },
{ "type": "Feature", "properties": { "name": "Mother Bar", "address": "3079 16th St", "phone": "(415) 815-7387", "website": "https://www.mothersf.com/", "overdose_help": "narcan", "value": "yes" }, "geometry": { "type": "Point", "coordinates": [ -122.4213151, 37.7646979 ] } },
{ "type": "Feature", "properties": { "name": "Mothership Bar", "address": "3152 Mission St", "phone": "(415) 637-5479", "website": "https://mothershipbar.com/", "overdose_help": "narcan", "value": "yes" }, "geometry": { "type": "Point", "coordinates": [ -122.419351, 37.7469249 ] } },
{ "type": "Feature", "properties": { "name": "Pop's Bar", "address": "2800 24th St", "phone": "(415) 872-5160", "website": "https://www.popssf.com/", "overdose_help": "narcan", "value": "yes" }, "geometry": { "type": "Point", "coordinates": [ -122.4083202, 37.7529581 ] } },
{ "type": "Feature", "properties": { "name": "Rock Bar", "address": "80 29th St", "phone": "(415) 550-6664", "website": "https://rockbarsf.com/", "overdose_help": "narcan", "value": "yes" }, "geometry": { "type": "Point", "coordinates": [ -122.4220837, 37.7441341 ] } },
{ "type": "Feature", "properties": { "name": "SF Eagle", "address": "398 12th St", "phone": "(415) 655-0411", "website": "https://sf-eagle.com/", "overdose_help": "narcan", "value": "yes" }, "geometry": { "type": "Point", "coordinates": [ -122.4134062, 37.7699936 ] } },
{ "type": "Feature", "properties": { "name": "The Chapel", "address": "777 Valencia St", "phone": "(415) 551-5157", "website": "https://www.thechapelsf.com/", "overdose_help": "narcan", "value": "yes" }, "geometry": { "type": "Point", "coordinates": [ -122.4212979, 37.7604864 ] } },
{ "type": "Feature", "properties": { "name": "The Latin American Club", "address": "3286 22nd St", "phone": "(415) 647-2732", "website": "https://www.yelp.com/biz/latin-american-club-san-francisco", "overdose_help": "narcan", "value": "yes" }, "geometry": { "type": "Point", "coordinates": [ -122.4206407, 37.7554939 ] } },
{ "type": "Feature", "properties": { "name": "The Lost Resort", "address": "2736 20th St", "phone": "(415) 237-0770", "website": "https://www.lostresortsf.com/", "overdose_help": "narcan", "value": "yes" }, "geometry": { "type": "Point", "coordinates": [ -122.4087544, 37.7594028 ] } },
{ "type": "Feature", "properties": { "name": "The Napper Tandy", "address": "3200 24th St", "phone": "(415) 550-7510", "website": "https://places.singleplatform.com/the-napper-tandy/", "overdose_help": "narcan", "value": "yes" }, "geometry": { "type": "Point", "coordinates": [ -122.4164941, 37.7524774 ] } },
{ "type": "Feature", "properties": { "name": "The Phone Booth", "address": "1398 S Van Ness Ave", "phone": "(415) 648-4683", "website": "https://www.yelp.com/biz/phone-booth-san-francisco", "overdose_help": "narcan", "value": "yes" }, "geometry": { "type": "Point", "coordinates": [ -122.4162826, 37.750873899999988 ] } },
{ "type": "Feature", "properties": { "name": "The Sycamore", "address": "2140 Mission St", "phone": "(415) 252-7704", "website": "https://thesycamoresf.com/", "overdose_help": "narcan", "value": "yes" }, "geometry": { "type": "Point", "coordinates": [ -122.419727, 37.7627643 ] } },
{ "type": "Feature", "properties": { "name": "Thee Parkside", "address": "1600 17th St", "phone": "(415) 252-1330", "website": "https://www.theeparkside.com/", "overdose_help": "narcan", "value": "yes" }, "geometry": { "type": "Point", "coordinates": [ -122.399911, 37.765222 ] } },
{ "type": "Feature", "properties": { "name": "Thrillhouse Records", "address": "3422 Mission St", "phone": "(415) 826-0223", "website": "https://thrillhouserecords.com/", "overdose_help": "narcan", "value": "yes" }, "geometry": { "type": "Point", "coordinates": [ -122.4225348, 37.7419415 ] } }
]
}
